{
    "locations":
    [
        {
            "name": "Warszawa",
            "latitude": 52.232,
            "longitude": 21.015
        },
        {
            "name": "Gdańsk",
            "latitude": 54.348,
            "longitude": 18.649
        },
        {
            "name": "Szczecin",
            "latitude": 53.438,
            "longitude": 14.551
        },
        {
            "name" : "Poznań",
            "latitude": 52.410,
            "longitude": 16.906
        },
        {
            "name": "Wrocław",
            "latitude": 51.08613,
            "longitude": 17.05629
        },
        {
            "name": "Kraków",
            "latitude": 50.055,
            "longitude": 19.947
        },
        {
            "name": "Rzeszów",
            "latitude": 50.0321,
            "longitude": 22.0662
        },
        {
            "name": "Kielce",
            "latitude": 50.869,
            "longitude": 20.635
        },
        {
            "name": "Lublin",
            "latitude": 51.235,
            "longitude": 22.575
        },
        {
            "name": "Suwałki",
            "latitude": 54.103,
            "longitude": 22.922
        }
    ]
}
